time,.header.seq,.header.stamp.secs,.header.stamp.nsecs,.header.frame_id,x,y,z,.pose.orientation.x,.pose.orientation.y,.pose.orientation.z,.pose.orientation.w
2023/02/28/14:14:58.226061,18602,1677611697,64880324,map,0.04856575652957,0.030904892832041,0.039319578558207,-0.015079181910033,-0.022257404633464,-0.710802771687731,-0.702877464464307
2023/02/28/14:14:58.226798,18603,1677611697,79929012,map,0.048577032983303,0.030923448503018,0.039319127798081,-0.015079181910033,-0.022257404633464,-0.710802771687731,-0.702877464464307
2023/02/28/14:14:58.237428,18604,1677611697,87893672,map,0.048585187643766,0.030949279665947,0.039314512163401,-0.015074420303968,-0.022261167886055,-0.710796180974295,-0.702884223765137
2023/02/28/14:14:58.238668,18605,1677611697,102003757,map,0.048594269901514,0.030972667038441,0.039312850683928,-0.015074420303968,-0.022261167886055,-0.710796180974295,-0.702884223765137
2023/02/28/14:14:58.238716,18606,1677611697,113523192,map,0.048607490956783,0.031027853488922,0.039304044097662,-0.015074420303968,-0.022261167886055,-0.710796180974295,-0.702884223765137
2023/02/28/14:14:58.243243,18607,1677611697,122851355,map,0.048615705221891,0.031051330268383,0.039302460849285,-0.015074420303968,-0.022261167886055,-0.710796180974295,-0.702884223765137
2023/02/28/14:14:58.246170,18608,1677611697,139163961,map,0.04862492531538,0.031072907149792,0.039304070174694,-0.015067536208954,-0.022255534367062,-0.710791029839153,-0.702889712075067
2023/02/28/14:14:58.246206,18609,1677611697,156899081,map,0.048631776124239,0.031100131571293,0.039301291108132,-0.015067536208954,-0.022255534367062,-0.710791029839153,-0.702889712075067
2023/02/28/14:14:58.246712,18610,1677611697,157130125,map,0.048639763146639,0.03112412430346,0.039301544427872,-0.015067536208954,-0.022255534367062,-0.710791029839153,-0.702889712075067
2023/02/28/14:14:58.246930,18611,1677611697,169341129,map,0.048648715019226,0.031145058572292,0.039304573088884,-0.015067536208954,-0.022255534367062,-0.710791029839153,-0.702889712075067
2023/02/28/14:14:58.246968,18612,1677611697,177833868,map,0.048656076192856,0.031172063201666,0.039305619895458,-0.015059148656828,-0.02224681293287,-0.710788449991043,-0.702892797685359
2023/02/28/14:14:58.247045,18613,1677611697,193480895,map,0.048672620207071,0.031215768307448,0.039312962442637,-0.015059148656828,-0.02224681293287,-0.710788449991043,-0.702892797685359
2023/02/28/14:14:58.251242,18614,1677611697,214945322,map,0.048679135739803,0.031242033466697,0.039314892143011,-0.015059148656828,-0.02224681293287,-0.710788449991043,-0.702892797685359
2023/02/28/14:14:58.251270,18615,1677611697,215166365,map,0.048686448484659,0.031265899538994,0.039320029318333,-0.015059148656828,-0.02224681293287,-0.710788449991043,-0.702892797685359
2023/02/28/14:14:58.252591,18616,1677611697,227234139,map,0.048694729804993,0.031285986304283,0.039326064288616,-0.015063838810814,-0.022245030911431,-0.710781209294178,-0.702899954088527
2023/02/28/14:14:58.252613,18617,1677611697,240171452,map,0.048704028129578,0.0313037969172,0.039333634078503,-0.015063838810814,-0.022245030911431,-0.710781209294178,-0.702899954088527
2023/02/28/14:14:58.252628,18618,1677611697,248911693,map,0.048710349947214,0.031327653676272,0.039337113499642,-0.015063838810814,-0.022245030911431,-0.710781209294178,-0.702899954088527
2023/02/28/14:14:58.253489,18619,1677611697,264518719,map,0.048717778176069,0.031348720192909,0.039342619478703,-0.015063838810814,-0.022245030911431,-0.710781209294178,-0.702899954088527
2023/02/28/14:14:58.253522,18620,1677611697,270580653,map,0.048726264387369,0.031366989016533,0.039348606020212,-0.015062916848503,-0.022242027948475,-0.71077821192885,-0.70290312004125
2023/02/28/14:14:58.267277,18621,1677611697,286830342,map,0.048739105463028,0.031413085758686,0.039355400949717,-0.015062916848503,-0.022242027948475,-0.71077821192885,-0.70290312004125
2023/02/28/14:14:58.267300,18622,1677611697,300141252,map,0.048746820539236,0.031431786715984,0.039361752569676,-0.015062916848503,-0.022242027948475,-0.71077821192885,-0.70290312004125
2023/02/28/14:14:58.267314,18623,1677611697,304624837,map,0.048752874135971,0.031456209719181,0.039362866431475,-0.015062916848503,-0.022242027948475,-0.71077821192885,-0.70290312004125
2023/02/28/14:14:58.268619,18624,1677611697,318032259,map,0.048760026693344,0.031477991491556,0.039365887641907,-0.015062412074137,-0.022233850472047,-0.710771961682925,-0.702909707461963
2023/02/28/14:14:58.268645,18625,1677611697,335914099,map,0.048760555684567,0.031537361443043,0.039375372231007,-0.015062412074137,-0.022233850472047,-0.710771961682925,-0.702909707461963
2023/02/28/14:14:58.268659,18626,1677611697,350326791,map,0.048766672611237,0.03155967220664,0.039378177374601,-0.015062412074137,-0.022233850472047,-0.710771961682925,-0.702909707461963
2023/02/28/14:14:58.268677,18627,1677611697,357271546,map,0.048773806542158,0.031579088419676,0.039381735026836,-0.015062412074137,-0.022233850472047,-0.710771961682925,-0.702909707461963
2023/02/28/14:14:58.268702,18628,1677611697,364056456,map,0.048781264573336,0.031595446169376,0.039387475699186,-0.01506442985451,-0.022238320672167,-0.71076449905656,-0.70291708579463
2023/02/28/14:14:58.268722,18629,1677611697,385573644,map,0.048787325620651,0.031617816537619,0.039389930665493,-0.01506442985451,-0.022238320672167,-0.71076449905656,-0.70291708579463
2023/02/28/14:14:58.268752,18630,1677611697,386729540,map,0.048793248832226,0.031637571752071,0.039394069463015,-0.01506442985451,-0.022238320672167,-0.71076449905656,-0.70291708579463
2023/02/28/14:14:58.268766,18631,1677611697,399194661,map,0.048808008432388,0.031668446958065,0.03940711542964,-0.01506442985451,-0.022238320672167,-0.71076449905656,-0.70291708579463
2023/02/28/14:14:58.268784,18632,1677611697,409627314,map,0.048817552626133,0.031680043786764,0.039416655898094,-0.01506080259136,-0.022243307171182,-0.710761764121219,-0.702919820729972
2023/02/28/14:14:58.268803,18633,1677611697,422218530,map,0.048823785036802,0.031698614358902,0.039421636611223,-0.01506080259136,-0.022243307171182,-0.710761764121219,-0.702919820729972
2023/02/28/14:14:58.268818,18634,1677611697,435389023,map,0.048831287771463,0.031714294105768,0.039427235722542,-0.01506080259136,-0.022243307171182,-0.710761764121219,-0.702919820729972
2023/02/28/14:14:58.268842,18635,1677611697,459822228,map,0.048839874565601,0.031726397573948,0.03943482041359,-0.01506080259136,-0.022243307171182,-0.710761764121219,-0.702919820729972
2023/02/28/14:14:58.268862,18636,1677611697,463432420,map,0.048848237842321,0.031736083328724,0.039444632828236,-0.015060331073492,-0.022242432624075,-0.710758669620575,-0.702922830936918
2023/02/28/14:14:58.268876,18637,1677611697,472823657,map,0.04885645955801,0.031742971390486,0.0394566655159,-0.015060331073492,-0.022242432624075,-0.710758669620575,-0.702922830936918
2023/02/28/14:14:58.268894,18638,1677611697,481832494,map,0.048872388899326,0.031759344041348,0.039478667080402,-0.015060331073492,-0.022242432624075,-0.710758669620575,-0.702922830936918
2023/02/28/14:14:58.268961,18639,1677611697,492535202,map,0.048880163580179,0.031768705695868,0.039489693939686,-0.015060331073492,-0.022242432624075,-0.710758669620575,-0.702922830936918
2023/02/28/14:14:58.268978,18640,1677611697,506236793,map,0.048888847231865,0.031775590032339,0.039502985775471,-0.015061155900488,-0.022242010826318,-0.710760196456017,-0.70292147268887
2023/02/28/14:14:58.268996,18641,1677611697,523207323,map,0.048896566033363,0.031789626926184,0.039511613547802,-0.015061155900488,-0.022242010826318,-0.710760196456017,-0.70292147268887
2023/02/28/14:14:58.269012,18642,1677611697,526137299,map,0.048905503004789,0.031801704317331,0.039523489773274,-0.015061155900488,-0.022242010826318,-0.710760196456017,-0.70292147268887
2023/02/28/14:14:58.269027,18643,1677611697,543274653,map,0.048914827406406,0.03181117027998,0.039537258446217,-0.015061155900488,-0.022242010826318,-0.710760196456017,-0.70292147268887
2023/02/28/14:14:58.269043,18644,1677611697,549758934,map,0.048924386501312,0.031819585710764,0.039553329348564,-0.015053660017626,-0.022251432293321,-0.710758177687828,-0.702923322869665
2023/02/28/14:14:58.269058,18645,1677611697,560482267,map,0.048940356820822,0.031850036233664,0.039579518139362,-0.015053660017626,-0.022251432293321,-0.710758177687828,-0.702923322869665
2023/02/28/14:14:58.269075,18646,1677611697,572433269,map,0.048948910087347,0.031861558556557,0.039595287293196,-0.015053660017626,-0.022251432293321,-0.710758177687828,-0.702923322869665
2023/02/28/14:14:58.269098,18647,1677611697,591050845,map,0.04895494133234,0.031881012022495,0.039607688784599,-0.015053660017626,-0.022251432293321,-0.710758177687828,-0.702923322869665
2023/02/28/14:14:58.269114,18648,1677611697,597663253,map,0.048961628228426,0.031897712498903,0.039620481431484,-0.015057954386363,-0.022257176777064,-0.71075781417126,-0.702923349211446
2023/02/28/14:14:58.269145,18649,1677611697,609177323,map,0.048968981951475,0.031912386417389,0.039636105298996,-0.015057954386363,-0.022257176777064,-0.71075781417126,-0.702923349211446
2023/02/28/14:14:58.269172,18650,1677611697,620314827,map,0.048975430428982,0.031933221966028,0.039647713303566,-0.015057954386363,-0.022257176777064,-0.71075781417126,-0.702923349211446
2023/02/28/14:14:58.269192,18651,1677611697,629002516,map,0.048982601612806,0.031952306628227,0.039660841226578,-0.015057954386363,-0.022257176777064,-0.71075781417126,-0.702923349211446
2023/02/28/14:14:58.269208,18652,1677611697,647165140,map,0.048990912735462,0.031967848539353,0.039674192667008,-0.015058254353386,-0.022256323632654,-0.710754130931826,-0.702927201038273
2023/02/28/14:14:58.269223,18653,1677611697,654646098,map,0.049004551023245,0.032011289149523,0.039696265012026,-0.015058254353386,-0.022256323632654,-0.710754130931826,-0.702927201038273
2023/02/28/14:14:58.269243,18654,1677611697,670477397,map,0.049012389034033,0.032029535621405,0.039709202945232,-0.015058254353386,-0.022256323632654,-0.710754130931826,-0.702927201038273
2023/02/28/14:14:58.269259,18655,1677611697,681821882,map,0.049021318554878,0.03204495087266,0.039722576737404,-0.015058254353386,-0.022256323632654,-0.710754130931826,-0.702927201038273
2023/02/28/14:14:58.269279,18656,1677611697,688408300,map,0.049028843641281,0.032066620886326,0.039732076227665,-0.015059321524761,-0.022261293997328,-0.710756773670937,-0.702924305418071
2023/02/28/14:14:58.269295,18657,1677611697,702897243,map,0.049037098884583,0.032085083425045,0.039741970598698,-0.015059321524761,-0.022261293997328,-0.710756773670937,-0.702924305418071
2023/02/28/14:14:58.269312,18658,1677611697,711436909,map,0.049054317176342,0.032123323529959,0.039758786559105,-0.015059321524761,-0.022261293997328,-0.710756773670937,-0.702924305418071
2023/02/28/14:14:58.269462,18659,1677611697,723624788,map,0.049063283950091,0.032143753021956,0.039766695350409,-0.015059321524761,-0.022261293997328,-0.710756773670937,-0.702924305418071
2023/02/28/14:14:58.269504,18660,1677611697,734340985,map,0.049073096364737,0.032160870730877,0.039774727076292,-0.015055391001865,-0.022260830711267,-0.710753747329651,-0.702927416053055
2023/02/28/14:14:58.269691,18661,1677611697,745706929,map,0.049080833792687,0.032184131443501,0.039777874946594,-0.015055391001865,-0.022260830711267,-0.710753747329651,-0.702927416053055
2023/02/28/14:14:58.269754,18662,1677611697,757375375,map,0.049089197069407,0.032204378396273,0.039781451225281,-0.015055391001865,-0.022260830711267,-0.710753747329651,-0.702927416053055
2023/02/28/14:14:58.269785,18663,1677611697,772465522,map,0.049098301678896,0.032223269343376,0.039786275476217,-0.015055391001865,-0.022260830711267,-0.710753747329651,-0.702927416053055
2023/02/28/14:14:58.269900,18664,1677611697,782299888,map,0.049105852842331,0.032248221337795,0.039785776287317,-0.015051819385726,-0.02225649979331,-0.710751901100122,-0.702929515163674
2023/02/28/14:14:58.269998,18665,1677611697,791938888,map,0.04911370947957,0.032271321862936,0.039785988628864,-0.015051819385726,-0.02225649979331,-0.710751901100122,-0.702929515163674
2023/02/28/14:14:58.273286,18666,1677611697,804706251,map,0.049131389707327,0.032309044152498,0.039788033813238,-0.015051819385726,-0.02225649979331,-0.710751901100122,-0.702929515163674
2023/02/28/14:14:58.277099,18667,1677611697,824121283,map,0.049139346927404,0.032332599163056,0.039784230291844,-0.015051819385726,-0.02225649979331,-0.710751901100122,-0.702929515163674
2023/02/28/14:14:58.277117,18668,1677611697,830587700,map,0.049147970974445,0.032354190945625,0.03978081792593,-0.015051022876144,-0.022253094788932,-0.710746590926482,-0.702934993924708
2023/02/28/14:14:58.277140,18669,1677611697,844946069,map,0.049157463014126,0.032372925430536,0.039776999503374,-0.015051022876144,-0.022253094788932,-0.710746590926482,-0.702934993924708
2023/02/28/14:14:58.277158,18670,1677611697,850528102,map,0.049165323376656,0.032398536801338,0.039769269526005,-0.015051022876144,-0.022253094788932,-0.710746590926482,-0.702934993924708
2023/02/28/14:14:58.277175,18671,1677611697,864770428,map,0.049174688756466,0.032420724630356,0.039760954678059,-0.015051022876144,-0.022253094788932,-0.710746590926482,-0.702934993924708
2023/02/28/14:14:58.277196,18672,1677611697,882799665,map,0.049184791743755,0.032440628856421,0.039753779768944,-0.015060876348345,-0.022259307168548,-0.710741666659924,-0.702939581016478
2023/02/28/14:14:58.277214,18673,1677611697,884618954,map,0.049204915761948,0.032490327954292,0.039731506258249,-0.015060876348345,-0.022259307168548,-0.710741666659924,-0.702939581016478
2023/02/28/14:14:58.277229,18674,1677611697,903695389,map,0.049216225743294,0.032511074095965,0.039720218628645,-0.015060876348345,-0.022259307168548,-0.710741666659924,-0.702939581016478
2023/02/28/14:14:58.277248,18675,1677611697,913333711,map,0.049228027462959,0.03252999484539,0.039709940552712,-0.015060876348345,-0.022259307168548,-0.710741666659924,-0.702939581016478
2023/02/28/14:14:58.278099,18676,1677611697,920585500,map,0.049238983541727,0.032554466277361,0.039695207029581,-0.015068004434099,-0.022259741807923,-0.710740349570908,-0.7029407295181
2023/02/28/14:14:58.278118,18677,1677611697,932244989,map,0.049252092838287,0.032576613128185,0.0396818369627,-0.015068004434099,-0.022259741807923,-0.710740349570908,-0.7029407295181
2023/02/28/14:14:58.278141,18678,1677611697,944759381,map,0.049265667796135,0.032595623284578,0.039668388664723,-0.015068004434099,-0.022259741807923,-0.710740349570908,-0.7029407295181
2023/02/28/14:14:58.278156,18679,1677611697,957816747,map,0.049273647367954,0.032663278281689,0.039654441177845,-0.015068004434099,-0.022259741807923,-0.710740349570908,-0.7029407295181
2023/02/28/14:14:58.278171,18680,1677611697,969454360,map,0.049286630004644,0.032682843506336,0.039640620350838,-0.015066157875299,-0.022255945957379,-0.710736850723937,-0.702944481246162
2023/02/28/14:14:58.278185,18681,1677611697,978426895,map,0.049297396093607,0.032708581537008,0.039624579250813,-0.015066157875299,-0.022255945957379,-0.710736850723937,-0.702944481246162
2023/02/28/14:14:58.278575,18682,1677611697,989975965,map,0.049321621656418,0.032751500606537,0.039595793932676,-0.015066157875299,-0.022255945957379,-0.710736850723937,-0.702944481246162
2023/02/28/14:14:58.278630,18683,1677611698,1930144,map,0.049332436174154,0.032777033746243,0.039580967277289,-0.015066157875299,-0.022255945957379,-0.710736850723937,-0.702944481246162
2023/02/28/14:14:58.278652,18684,1677611698,13158169,map,0.04934461414814,0.032799541950226,0.039567451924086,-0.015068359718861,-0.022256754979307,-0.71073590604184,-0.702945425928259
2023/02/28/14:14:58.278692,18685,1677611698,34887703,map,0.049358043819666,0.032819416373968,0.039555355906487,-0.015068359718861,-0.022256754979307,-0.71073590604184,-0.702945425928259
2023/02/28/14:14:58.279016,18686,1677611698,35169737,map,0.049372557550669,0.03283666819334,0.039543766528368,-0.015068359718861,-0.022256754979307,-0.71073590604184,-0.702945425928259
2023/02/28/14:14:58.279036,18687,1677611698,48812994,map,0.049388334155083,0.032851103693247,0.03953393176198,-0.015068359718861,-0.022256754979307,-0.71073590604184,-0.702945425928259
2023/02/28/14:14:58.279065,18688,1677611698,65963786,map,0.049417048692703,0.032887540757656,0.039510414004326,-0.015065926067632,-0.022251283462262,-0.710735593562471,-0.702945822701325
2023/02/28/14:14:58.279093,18689,1677611698,72777446,map,0.049430061131716,0.032909665256739,0.039495650678873,-0.015065926067632,-0.022251283462262,-0.710735593562471,-0.702945822701325
2023/02/28/14:14:58.279496,18690,1677611698,81551541,map,0.049443572759628,0.032929591834545,0.039482854306698,-0.015065926067632,-0.022251283462262,-0.710735593562471,-0.702945822701325
2023/02/28/14:14:58.279952,18691,1677611698,93230457,map,0.049457632005215,0.032946221530438,0.039470639079809,-0.015065926067632,-0.022251283462262,-0.710735593562471,-0.702945822701325
2023/02/28/14:14:58.279976,18692,1677611698,112429028,map,0.049470104277134,0.032969400286675,0.039455596357584,-0.015072685039189,-0.022244058241193,-0.710728463171811,-0.702953290266773
2023/02/28/14:14:58.279998,18693,1677611698,116274326,map,0.049483384937048,0.032989200204611,0.039440967142582,-0.015072685039189,-0.022244058241193,-0.710728463171811,-0.702953290266773
2023/02/28/14:14:58.280023,18694,1677611698,128444340,map,0.049497373402119,0.033006567507982,0.039427872747183,-0.015072685039189,-0.022244058241193,-0.710728463171811,-0.702953290266773
2023/02/28/14:14:58.280045,18695,1677611698,150578253,map,0.049524080008268,0.033041179180145,0.039401296526194,-0.015072685039189,-0.022244058241193,-0.710728463171811,-0.702953290266773
2023/02/28/14:14:58.280083,18696,1677611698,167088621,map,0.049536481499672,0.033057823777199,0.039386849850416,-0.015077253691714,-0.022246053960325,-0.710720288658834,-0.702961296192357
2023/02/28/14:14:58.280114,18697,1677611698,173796342,map,0.049549598246813,0.033072110265493,0.039373833686113,-0.015077253691714,-0.022246053960325,-0.710720288658834,-0.702961296192357
2023/02/28/14:14:58.280314,18698,1677611698,188474714,map,0.049572821706534,0.033109188079834,0.039341241121292,-0.015077253691714,-0.022246053960325,-0.710720288658834,-0.702961296192357
2023/02/28/14:14:58.280545,18699,1677611698,204586954,map,0.049585469067097,0.033123210072517,0.039325669407845,-0.015072627087273,-0.02224261734581,-0.710716665346951,-0.702965172385331
2023/02/28/14:14:58.280777,18700,1677611698,212633750,map,0.04959624633193,0.033143542706966,0.039308309555054,-0.015072627087273,-0.02224261734581,-0.710716665346951,-0.702965172385331
2023/02/28/14:14:58.292423,18701,1677611698,216328630,map,0.049608021974564,0.033160243183374,0.039291489869356,-0.015072627087273,-0.02224261734581,-0.710716665346951,-0.702965172385331
2023/02/28/14:14:58.292556,18702,1677611698,236184604,map,0.049620218575001,0.033174496144056,0.039276354014874,-0.015072627087273,-0.02224261734581,-0.710716665346951,-0.702965172385331
2023/02/28/14:14:58.301462,18703,1677611698,245641883,map,0.049630515277386,0.033194500952959,0.039258167147637,-0.015073493073301,-0.022244261731446,-0.710717168474955,-0.702964669257327
2023/02/28/14:14:58.301540,18704,1677611698,249264002,map,0.04964205622673,0.03321272879839,0.039242550730705,-0.015073493073301,-0.022244261731446,-0.710717168474955,-0.702964669257327
2023/02/28/14:14:58.309395,18705,1677611698,267996110,map,0.049666345119476,0.033240534365177,0.039213418960571,-0.015073493073301,-0.022244261731446,-0.710717168474955,-0.702964669257327
2023/02/28/14:14:58.309754,18706,1677611698,278366732,map,0.049677312374115,0.033258251845837,0.039196688681841,-0.015073493073301,-0.022244261731446,-0.710717168474955,-0.702964669257327
2023/02/28/14:14:58.310811,18707,1677611698,289768561,map,0.049689613282681,0.033273540437222,0.039181560277939,-0.015074564525215,-0.022233169866298,-0.710716644932071,-0.702965445681302
2023/02/28/14:14:58.330474,18708,1677611698,304094950,map,0.04970233142376,0.033286090940237,0.03916697576642,-0.015074564525215,-0.022233169866298,-0.710716644932071,-0.702965445681302
2023/02/28/14:14:58.330489,18709,1677611698,312074871,map,0.049712087959051,0.033304616808891,0.039149802178145,-0.015074564525215,-0.022233169866298,-0.710716644932071,-0.702965445681302
2023/02/28/14:14:58.330510,18710,1677611698,325216405,map,0.049722980707884,0.033320683985949,0.039133355021477,-0.015074564525215,-0.022233169866298,-0.710716644932071,-0.702965445681302
2023/02/28/14:14:58.349339,18711,1677611698,337857934,map,0.049735233187676,0.033334225416184,0.039119493216276,-0.015067774602066,-0.022228390479531,-0.710716252439544,-0.70296609105492
2023/02/28/14:14:58.351038,18712,1677611698,349863259,map,0.04975776001811,0.033371925354004,0.039089404046536,-0.015067774602066,-0.022228390479531,-0.710716252439544,-0.70296609105492
2023/02/28/14:14:58.369195,18713,1677611698,359517154,map,0.049771074205637,0.033386908471584,0.039077237248421,-0.015067774602066,-0.022228390479531,-0.710716252439544,-0.70296609105492
2023/02/28/14:14:58.385968,18714,1677611698,370904557,map,0.049785513430834,0.033398877829313,0.039067663252354,-0.015067774602066,-0.022228390479531,-0.710716252439544,-0.70296609105492
2023/02/28/14:14:58.389313,18715,1677611698,383895256,map,0.04979819059372,0.033417571336031,0.039056498557329,-0.015069992909241,-0.022229159330245,-0.710717305452212,-0.702964953748554
2023/02/28/14:14:58.418484,18716,1677611698,393010084,map,0.049811847507954,0.033433176577091,0.039046473801136,-0.015069992909241,-0.022229159330245,-0.710717305452212,-0.702964953748554
2023/02/28/14:14:58.418521,18717,1677611698,406367869,map,0.049826815724373,0.033446665853262,0.039037805050612,-0.015069992909241,-0.022229159330245,-0.710717305452212,-0.702964953748554
2023/02/28/14:14:58.421728,18718,1677611698,416213642,map,0.049840182065964,0.033466186374426,0.039027620106936,-0.015069992909241,-0.022229159330245,-0.710717305452212,-0.702964953748554
2023/02/28/14:14:58.447237,18719,1677611698,423651579,map,0.049855038523674,0.033482886850834,0.039019338786602,-0.015076126592788,-0.022235374673311,-0.710719451978036,-0.702962470047942
2023/02/28/14:14:58.449844,18720,1677611698,444259383,map,0.049884185194969,0.033515851944685,0.039003290235996,-0.015076126592788,-0.022235374673311,-0.710719451978036,-0.702962470047942
2023/02/28/14:14:58.449927,18721,1677611698,448516143,map,0.04989867657423,0.033532757312059,0.038997322320938,-0.015076126592788,-0.022235374673311,-0.710719451978036,-0.702962470047942
2023/02/28/14:14:58.477207,18722,1677611698,467071115,map,0.049913715571165,0.033547028899193,0.03899297490716,-0.015076126592788,-0.022235374673311,-0.710719451978036,-0.702962470047942
2023/02/28/14:14:58.477312,18723,1677611698,473421801,map,0.049929685890675,0.033558808267117,0.038989555090666,-0.015074142068913,-0.022242622284894,-0.710715088791399,-0.702966748940883
2023/02/28/14:14:58.491235,18724,1677611698,487253185,map,0.049944546073675,0.033576905727387,0.038984104990959,-0.015074142068913,-0.022242622284894,-0.710715088791399,-0.702966748940883
2023/02/28/14:14:58.491288,18725,1677611698,490566915,map,0.049960304051638,0.033592484891415,0.038980316370726,-0.015074142068913,-0.022242622284894,-0.710715088791399,-0.702966748940883
2023/02/28/14:14:58.513341,18726,1677611698,510257575,map,0.049976669251919,0.033605359494686,0.038978196680546,-0.015074142068913,-0.022242622284894,-0.710715088791399,-0.702966748940883
2023/02/28/14:14:58.524651,18727,1677611698,523757498,map,0.050005901604891,0.033641092479229,0.038967914879322,-0.015072243485097,-0.022248532721853,-0.710711925472854,-0.702969743672033
2023/02/28/14:14:58.546878,18728,1677611698,533944367,map,0.050021961331368,0.033655449748039,0.038963936269283,-0.015072243485097,-0.022248532721853,-0.710711925472854,-0.702969743672033
2023/02/28/14:14:58.547096,18729,1677611698,542643983,map,0.050019305199385,0.033700920641422,0.038984052836895,-0.015072243485097,-0.022248532721853,-0.710711925472854,-0.702969743672033
2023/02/28/14:14:58.569150,18730,1677611698,557092665,map,0.050050668418408,0.033732317388058,0.038971092551947,-0.015072243485097,-0.022248532721853,-0.710711925472854,-0.702969743672033
2023/02/28/14:14:58.572536,18731,1677611698,569422264,map,0.050064709037542,0.033752255141735,0.038962345570326,-0.015071585269861,-0.022250107631043,-0.710705860277936,-0.702975808866952
2023/02/28/14:14:58.582069,18732,1677611698,578325058,map,0.050079472362995,0.03376891836524,0.038953986018896,-0.015071585269861,-0.022250107631043,-0.710705860277936,-0.702975808866952
2023/02/28/14:14:58.602275,18733,1677611698,598240512,map,0.050094559788704,0.033784061670303,0.038946617394686,-0.015071585269861,-0.022250107631043,-0.710705860277936,-0.702975808866952
2023/02/28/14:14:58.607077,18734,1677611698,604436145,map,0.050110977143049,0.033796615898609,0.038939073681831,-0.015071585269861,-0.022250107631043,-0.710705860277936,-0.702975808866952
2023/02/28/14:14:58.621289,18735,1677611698,612509453,map,0.05012571439147,0.033815916627646,0.038927555084229,-0.015070116057064,-0.022244361830211,-0.710705970913413,-0.702975951112565
2023/02/28/14:14:58.649491,18736,1677611698,633874243,map,0.050157144665718,0.033847201615572,0.038904558867216,-0.015070116057064,-0.022244361830211,-0.710705970913413,-0.702975951112565
2023/02/28/14:14:58.649595,18737,1677611698,648525219,map,0.050171233713627,0.033867005258799,0.038888934999704,-0.015070116057064,-0.022244361830211,-0.710705970913413,-0.702975951112565
2023/02/28/14:14:58.685343,18738,1677611698,651508893,map,0.050186887383461,0.033884059637785,0.038875054568052,-0.015070116057064,-0.022244361830211,-0.710705970913413,-0.702975951112565
2023/02/28/14:14:58.692155,18739,1677611698,660614919,map,0.05020359903574,0.03389734774828,0.038861226290464,-0.015065034069096,-0.022242673980637,-0.710704121720435,-0.702978053186635
2023/02/28/14:14:58.692247,18740,1677611698,673968486,map,0.050220582634211,0.033908806741238,0.038848467171192,-0.015065034069096,-0.022242673980637,-0.710704121720435,-0.702978053186635
2023/02/28/14:14:58.692271,18741,1677611698,679781355,map,0.050235226750374,0.033926755189896,0.038831911981106,-0.015065034069096,-0.022242673980637,-0.710704121720435,-0.702978053186635
2023/02/28/14:14:58.851488,18742,1677611698,692975598,map,0.050250463187695,0.033942062407732,0.038816925138235,-0.015065034069096,-0.022242673980637,-0.710704121720435,-0.702978053186635
2023/02/28/14:14:58.851530,18743,1677611698,707522510,map,0.050282545387745,0.033963918685913,0.038790710270405,-0.015067067654536,-0.022246022020916,-0.710700427944289,-0.702981662669083
2023/02/28/14:14:58.851546,18744,1677611698,718806682,map,0.050297297537327,0.033979013562203,0.038776263594627,-0.015067067654536,-0.022246022020916,-0.710700427944289,-0.702981662669083
2023/02/28/14:14:58.851562,18745,1677611698,734858244,map,0.050312906503677,0.033992126584053,0.038764953613281,-0.015067067654536,-0.022246022020916,-0.710700427944289,-0.702981662669083
2023/02/28/14:14:58.851580,18746,1677611698,740664029,map,0.050329338759184,0.034001927822828,0.038754224777222,-0.015067067654536,-0.022246022020916,-0.710700427944289,-0.702981662669083
2023/02/28/14:14:58.861683,18747,1677611698,756788613,map,0.050342962145805,0.03401805087924,0.038741815835238,-0.015067473647226,-0.02224771283394,-0.710695706180167,-0.702986300139508
2023/02/28/14:14:58.861725,18748,1677611698,769559518,map,0.050357718020678,0.034031011164188,0.038731254637241,-0.015067473647226,-0.02224771283394,-0.710695706180167,-0.702986300139508
2023/02/28/14:14:58.861746,18749,1677611698,782356777,map,0.05038857460022,0.034049220383167,0.038715276867151,-0.015067473647226,-0.02224771283394,-0.710695706180167,-0.702986300139508
2023/02/28/14:14:58.861765,18750,1677611698,789742578,map,0.050401642918587,0.034063499420881,0.038705959916115,-0.015067473647226,-0.02224771283394,-0.710695706180167,-0.702986300139508
2023/02/28/14:14:58.861784,18751,1677611698,801912384,map,0.05041590705514,0.034075014293194,0.038697376847267,-0.015062641576898,-0.022245530088169,-0.710690258699997,-0.702992000500769
2023/02/28/14:14:58.861804,18752,1677611698,814404849,map,0.05043102055788,0.034085001796484,0.038692012429237,-0.015062641576898,-0.022245530088169,-0.710690258699997,-0.702992000500769
2023/02/28/14:14:58.861823,18753,1677611698,829440515,map,0.05044300109148,0.034100521355867,0.038683868944645,-0.015062641576898,-0.022245530088169,-0.710690258699997,-0.702992000500769
2023/02/28/14:14:58.861841,18754,1677611698,833701755,map,0.050456218421459,0.034113358706236,0.038677673786879,-0.015062641576898,-0.022245530088169,-0.710690258699997,-0.702992000500769
2023/02/28/14:14:58.861859,18755,1677611698,843982115,map,0.05047008022666,0.034123323857784,0.038673892617226,-0.015061044277194,-0.022242449087688,-0.710690753596195,-0.702991589898269
2023/02/28/14:14:58.934093,18756,1677611698,863608191,map,0.050481010228396,0.034139610826969,0.038668312132359,-0.015061044277194,-0.022242449087688,-0.710690753596195,-0.702991589898269
2023/02/28/14:14:58.934120,18757,1677611698,872820936,map,0.050505138933659,0.034163549542427,0.03866071999073,-0.015061044277194,-0.022242449087688,-0.710690753596195,-0.702991589898269
2023/02/28/14:14:58.934142,18758,1677611698,885984449,map,0.050515089184046,0.03418043255806,0.038655243813992,-0.015061044277194,-0.022242449087688,-0.710690753596195,-0.702991589898269
2023/02/28/14:14:58.934162,18759,1677611698,888032855,map,0.050526175647974,0.034195981919766,0.038652088493109,-0.015056142730421,-0.022237648956769,-0.710690264626898,-0.702992416042354
2023/02/28/14:14:58.934209,18760,1677611698,900650477,map,0.050538875162602,0.034208402037621,0.038649369031191,-0.015056142730421,-0.022237648956769,-0.710690264626898,-0.702992416042354
2023/02/28/14:14:58.934896,18761,1677611698,916879489,map,0.050549123436213,0.034227170050144,0.038644075393677,-0.015056142730421,-0.022237648956769,-0.710690264626898,-0.702992416042354
2023/02/28/14:14:58.934928,18762,1677611698,925669626,map,0.05056007951498,0.034243673086166,0.0386399962008,-0.015056142730421,-0.022237648956769,-0.710690264626898,-0.702992416042354
2023/02/28/14:14:58.947031,18763,1677611698,938519126,map,0.050585061311722,0.034269109368324,0.038636513054371,-0.015052301769578,-0.022235873850048,-0.710688265285772,-0.70299441538348
2023/02/28/14:14:58.954004,18764,1677611698,949848819,map,0.050594884902239,0.034286864101887,0.038632035255432,-0.015052301769578,-0.022235873850048,-0.710688265285772,-0.70299441538348
2023/02/28/14:14:58.991067,18765,1677611698,962524775,map,0.050605539232493,0.034302491694689,0.038629248738289,-0.015052301769578,-0.022235873850048,-0.710688265285772,-0.70299441538348
2023/02/28/14:14:58.995677,18766,1677611698,975341358,map,0.050617422908545,0.03431610763073,0.038629569113255,-0.015052301769578,-0.022235873850048,-0.710688265285772,-0.70299441538348
2023/02/28/14:14:58.995712,18767,1677611698,983777690,map,0.050627015531063,0.034335535019636,0.03862626850605,-0.015048681091874,-0.022235614383512,-0.710683356824281,-0.702999492432364
2023/02/28/14:14:59.047846,18768,1677611699,2829541,map,0.05063733458519,0.034353323280811,0.03862489387393,-0.015048681091874,-0.022235614383512,-0.710683356824281,-0.702999492432364
2023/02/28/14:14:59.047998,18769,1677611699,9186738,map,0.050648897886276,0.034369073808193,0.038625042885542,-0.015048681091874,-0.022235614383512,-0.710683356824281,-0.702999492432364
2023/02/28/14:14:59.049397,18770,1677611699,19995645,map,0.050667136907578,0.034412674605846,0.038622584193945,-0.015048681091874,-0.022235614383512,-0.710683356824281,-0.702999492432364
2023/02/28/14:14:59.049444,18771,1677611699,34581203,map,0.05067740380764,0.034431785345078,0.038624212145805,-0.015051381453629,-0.022240721725443,-0.710678533644305,-0.703004231318644
2023/02/28/14:14:59.175284,18772,1677611699,46875229,map,0.050670795142651,0.034471563994885,0.038650877773762,-0.015051381453629,-0.022240721725443,-0.710678533644305,-0.703004231318644
2023/02/28/14:14:59.175918,18773,1677611699,57206527,map,0.050680071115494,0.034493982791901,0.038651682436466,-0.015051381453629,-0.022240721725443,-0.710678533644305,-0.703004231318644
2023/02/28/14:14:59.175944,18774,1677611699,58087838,map,0.050689794123173,0.034513641148806,0.038654025644064,-0.015051381453629,-0.022240721725443,-0.710678533644305,-0.703004231318644
2023/02/28/14:14:59.175959,18775,1677611699,83314437,map,0.050707757472992,0.034553021192551,0.038658648729324,-0.015051716982055,-0.022248862981923,-0.710679964002976,-0.703002548078882
2023/02/28/14:14:59.175973,18776,1677611699,89136837,map,0.050717160105705,0.034573394805193,0.038663771003485,-0.015051716982055,-0.022248862981923,-0.710679964002976,-0.703002548078882
2023/02/28/14:14:59.176274,18777,1677611699,98658804,map,0.050727836787701,0.034591097384691,0.038671784102917,-0.015051716982055,-0.022248862981923,-0.710679964002976,-0.703002548078882
2023/02/28/14:14:59.176293,18778,1677611699,118293161,map,0.050736147910357,0.034614890813828,0.038677766919136,-0.015051716982055,-0.022248862981923,-0.710679964002976,-0.703002548078882
2023/02/28/14:14:59.176313,18779,1677611699,126399125,map,0.050746463239193,0.034635171294212,0.038686733692885,-0.015045435455266,-0.022243775396327,-0.710677247506881,-0.703005601749765
2023/02/28/14:14:59.176328,18780,1677611699,136065209,map,0.050757721066475,0.034654274582863,0.038698945194483,-0.015045435455266,-0.022243775396327,-0.710677247506881,-0.703005601749765
2023/02/28/14:14:59.176343,18781,1677611699,148470329,map,0.050777040421963,0.034700974822044,0.03871851041913,-0.015045435455266,-0.022243775396327,-0.710677247506881,-0.703005601749765
2023/02/28/14:14:59.176357,18782,1677611699,156878900,map,0.050788093358278,0.034719280898571,0.038731280714274,-0.015045435455266,-0.022243775396327,-0.710677247506881,-0.703005601749765
2023/02/28/14:14:59.176565,18783,1677611699,171304821,map,0.050800275057554,0.034734670072794,0.03874634206295,-0.015041593506606,-0.022237699664696,-0.710668891235619,-0.703014210902118
2023/02/28/14:14:59.375245,18784,1677611699,180433087,map,0.050809994339943,0.034755878150463,0.038757652044296,-0.015041593506606,-0.022237699664696,-0.710668891235619,-0.703014210902118
2023/02/28/14:14:59.375260,18785,1677611699,197105436,map,0.050820507109165,0.034774318337441,0.038770448416472,-0.015041593506606,-0.022237699664696,-0.710668891235619,-0.703014210902118
2023/02/28/14:14:59.375276,18786,1677611699,204859001,map,0.050831642001867,0.034790363162756,0.038785889744759,-0.015041593506606,-0.022237699664696,-0.710668891235619,-0.703014210902118
2023/02/28/14:14:59.375292,18787,1677611699,217682094,map,0.050841271877289,0.034811891615391,0.038798250257969,-0.01504300377967,-0.022239908752248,-0.710665671940792,-0.703017430196945
2023/02/28/14:14:59.375307,18788,1677611699,234265536,map,0.050862342119217,0.034845747053623,0.038824629038572,-0.01504300377967,-0.022239908752248,-0.710665671940792,-0.703017430196945
2023/02/28/14:14:59.375320,18789,1677611699,239134021,map,0.050874374806881,0.034858651459217,0.038839548826218,-0.01504300377967,-0.022239908752248,-0.710665671940792,-0.703017430196945
2023/02/28/14:14:59.375335,18790,1677611699,251401588,map,0.050884563475847,0.03487753123045,0.03885044157505,-0.01504300377967,-0.022239908752248,-0.710665671940792,-0.703017430196945
2023/02/28/14:14:59.375349,18791,1677611699,265295837,map,0.05089458078146,0.0348937548697,0.038861848413944,-0.015049030120463,-0.022245657187259,-0.710661033153277,-0.703021731809671
2023/02/28/14:14:59.375363,18792,1677611699,266380223,map,0.050904750823975,0.034907475113869,0.038874551653862,-0.015049030120463,-0.022245657187259,-0.710661033153277,-0.703021731809671
2023/02/28/14:14:59.375377,18793,1677611699,286477710,map,0.050903975963593,0.034964099526405,0.038906436413527,-0.015049030120463,-0.022245657187259,-0.710661033153277,-0.703021731809671
2023/02/28/14:14:59.378234,18794,1677611699,298845486,map,0.050913710147142,0.034977082163096,0.038916282355785,-0.015049030120463,-0.022245657187259,-0.710661033153277,-0.703021731809671
2023/02/28/14:14:59.378965,18795,1677611699,309074283,map,0.050921451300383,0.034993451088667,0.038919441401959,-0.015046850338141,-0.022246053631052,-0.710656428280805,-0.703026505269537
2023/02/28/14:14:59.379003,18796,1677611699,322031388,map,0.050929449498653,0.035007670521736,0.038924038410187,-0.015046850338141,-0.022246053631052,-0.710656428280805,-0.703026505269537
2023/02/28/14:14:59.379018,18797,1677611699,332492687,map,0.050938367843628,0.035018641501665,0.038928646594286,-0.015046850338141,-0.022246053631052,-0.710656428280805,-0.703026505269537
2023/02/28/14:14:59.379033,18798,1677611699,344519835,map,0.050950422883034,0.035048872232437,0.038928672671318,-0.015046850338141,-0.022246053631052,-0.710656428280805,-0.703026505269537
2023/02/28/14:14:59.379048,18799,1677611699,353389661,map,0.050957128405571,0.035060383379459,0.038929779082537,-0.015047092023976,-0.022243954849705,-0.710654353207061,-0.703028748930676
2023/02/28/14:14:59.379063,18800,1677611699,366259838,map,0.050964765250683,0.035067986696959,0.038931801915169,-0.015047092023976,-0.022243954849705,-0.710654353207061,-0.703028748930676
2023/02/28/14:14:59.407286,18801,1677611699,376985723,map,0.050969690084457,0.035081058740616,0.0389294475317,-0.015047092023976,-0.022243954849705,-0.710654353207061,-0.703028748930676
2023/02/28/14:14:59.407369,18802,1677611699,394234640,map,0.050975263118744,0.035090669989586,0.038926988840103,-0.015047092023976,-0.022243954849705,-0.710654353207061,-0.703028748930676
2023/02/28/14:14:59.413936,18803,1677611699,405924285,map,0.05098120495677,0.035097889602184,0.038926109671593,-0.015046425247661,-0.022248981190663,-0.710653197461449,-0.703029651795197
2023/02/28/14:14:59.490824,18804,1677611699,414280564,map,0.050995111465454,0.035102427005768,0.038924552500248,-0.015046425247661,-0.022248981190663,-0.710653197461449,-0.703029651795197
2023/02/28/14:14:59.490875,18805,1677611699,424455767,map,0.051000081002712,0.03510881587863,0.038918800652027,-0.015046425247661,-0.022248981190663,-0.710653197461449,-0.703029651795197
2023/02/28/14:14:59.490898,18806,1677611699,434989567,map,0.051005847752094,0.035112909972668,0.03891496360302,-0.015046425247661,-0.022248981190663,-0.710653197461449,-0.703029651795197
2023/02/28/14:14:59.490919,18807,1677611699,447577554,map,0.051009222865105,0.03512217104435,0.038907386362553,-0.015042845399716,-0.022243046387557,-0.710651395354403,-0.703031706783334
2023/02/28/14:14:59.491382,18808,1677611699,457180303,map,0.051013428717852,0.035128764808178,0.038900405168533,-0.015042845399716,-0.022243046387557,-0.710651395354403,-0.703031706783334
2023/02/28/14:14:59.491427,18809,1677611699,468144159,map,0.051018357276917,0.03513216227293,0.038893152028322,-0.015042845399716,-0.022243046387557,-0.710651395354403,-0.703031706783334
2023/02/28/14:14:59.551234,18810,1677611699,482495549,map,0.051020115613937,0.035142786800861,0.038882866501808,-0.015042845399716,-0.022243046387557,-0.710651395354403,-0.703031706783334
2023/02/28/14:14:59.551604,18811,1677611699,501719121,map,0.051024112850428,0.035156730562449,0.038863267749548,-0.015043794691624,-0.02224323242638,-0.71064504896098,-0.703038137470454
2023/02/28/14:14:59.551745,18812,1677611699,505026601,map,0.051027350127697,0.03516011312604,0.038852848112583,-0.015043794691624,-0.02224323242638,-0.71064504896098,-0.703038137470454
2023/02/28/14:14:59.552391,18813,1677611699,522524270,map,0.051028721034527,0.035171125084162,0.038839064538479,-0.015043794691624,-0.02224323242638,-0.71064504896098,-0.703038137470454
2023/02/28/14:14:59.552460,18814,1677611699,532991403,map,0.051031671464443,0.035179328173399,0.038825292140246,-0.015043794691624,-0.02224323242638,-0.71064504896098,-0.703038137470454
2023/02/28/14:14:59.552488,18815,1677611699,541970136,map,0.051035422831774,0.03518545627594,0.038812384009361,-0.015042964925544,-0.02224653831981,-0.710641536284574,-0.70304165014686
2023/02/28/14:14:59.666894,18816,1677611699,552337528,map,0.051036480814219,0.035197854042053,0.038795318454504,-0.015042964925544,-0.02224653831981,-0.710641536284574,-0.70304165014686
2023/02/28/14:14:59.666914,18817,1677611699,566371206,map,0.05103825032711,0.035207554697991,0.03878091275692,-0.015042964925544,-0.02224653831981,-0.710641536284574,-0.70304165014686
2023/02/28/14:14:59.666934,18818,1677611699,584340547,map,0.051044546067715,0.035218566656113,0.038754783570767,-0.015042964925544,-0.02224653831981,-0.710641536284574,-0.70304165014686
2023/02/28/14:14:59.666953,18819,1677611699,586446349,map,0.051046345382929,0.035229444503784,0.038738336414099,-0.015043972498641,-0.022246307829232,-0.71063598014456,-0.703047121993177
2023/02/28/14:14:59.666971,18820,1677611699,603053958,map,0.051049195230007,0.035238288342953,0.03872449696064,-0.015043972498641,-0.022246307829232,-0.71063598014456,-0.703047121993177
2023/02/28/14:14:59.666989,18821,1677611699,609045526,map,0.051053330302239,0.03524424880743,0.038711611181498,-0.015043972498641,-0.022246307829232,-0.71063598014456,-0.703047121993177
2023/02/28/14:14:59.667007,18822,1677611699,623246706,map,0.051055587828159,0.035257115960121,0.038696721196175,-0.015043972498641,-0.022246307829232,-0.71063598014456,-0.703047121993177
2023/02/28/14:14:59.667026,18823,1677611699,634315876,map,0.051058806478977,0.035266894847155,0.038682356476784,-0.015047716653442,-0.022247270950575,-0.710631753276636,-0.703051348861101
2023/02/28/14:14:59.667043,18824,1677611699,643253567,map,0.051063321530819,0.035274062305689,0.03867032378912,-0.015047716653442,-0.022247270950575,-0.710631753276636,-0.703051348861101
2023/02/28/14:14:59.667062,18825,1677611699,657201827,map,0.051067598164082,0.035299900919199,0.038640938699246,-0.015047716653442,-0.022247270950575,-0.710631753276636,-0.703051348861101
2023/02/28/14:14:59.703154,18826,1677611699,675122417,map,0.051071245223284,0.035309184342623,0.038626849651337,-0.015047716653442,-0.022247270950575,-0.710631753276636,-0.703051348861101
2023/02/28/14:14:59.703168,18827,1677611699,681675033,map,0.05107219144702,0.035325840115547,0.038610547780991,-0.01503954740882,-0.022249086557784,-0.710629019658383,-0.703054335360445
2023/02/28/14:14:59.742460,18828,1677611699,696220226,map,0.051074624061585,0.035340283066034,0.038594622164965,-0.01503954740882,-0.022249086557784,-0.710629019658383,-0.703054335360445
2023/02/28/14:14:59.742588,18829,1677611699,698990201,map,0.051078543066979,0.035351946949959,0.038578979671002,-0.01503954740882,-0.022249086557784,-0.710629019658383,-0.703054335360445
2023/02/28/14:14:59.742619,18830,1677611699,715906146,map,0.051082320511341,0.035362623631954,0.038564331829548,-0.01503954740882,-0.022249086557784,-0.710629019658383,-0.703054335360445
2023/02/28/14:14:59.742696,18831,1677611699,718214815,map,0.051082864403725,0.035380221903324,0.038547188043594,-0.01503913548923,-0.022255873188211,-0.710624871486527,-0.703058146357513
2023/02/28/14:14:59.742725,18832,1677611699,740146954,map,0.051086638122797,0.03540900349617,0.038516107946634,-0.01503913548923,-0.022255873188211,-0.710624871486527,-0.703058146357513
2023/02/28/14:14:59.753419,18833,1677611699,748004531,map,0.051086246967316,0.035429365932942,0.038498677313328,-0.01503913548923,-0.022255873188211,-0.710624871486527,-0.703058146357513
2023/02/28/14:14:59.774523,18834,1677611699,761458672,map,0.051087107509375,0.035447627305985,0.038483489304781,-0.01503913548923,-0.022255873188211,-0.710624871486527,-0.703058146357513
2023/02/28/14:14:59.774568,18835,1677611699,770410060,map,0.051089830696583,0.03546342253685,0.038470156490803,-0.01504093660846,-0.022251672332794,-0.710622847779254,-0.70306033865218
2023/02/28/14:14:59.812588,18836,1677611699,783858837,map,0.051089152693749,0.035486482083798,0.038454808294773,-0.01504093660846,-0.022251672332794,-0.710622847779254,-0.70306033865218
2023/02/28/14:14:59.813806,18837,1677611699,796862713,map,0.051089819520712,0.035507697612047,0.038441441953182,-0.01504093660846,-0.022251672332794,-0.710622847779254,-0.70306033865218
2023/02/28/14:14:59.813847,18838,1677611699,801732448,map,0.051091507077217,0.035526487976313,0.038430742919445,-0.01504093660846,-0.022251672332794,-0.710622847779254,-0.70306033865218
2023/02/28/14:14:59.825197,18839,1677611699,818889697,map,0.051090028136969,0.035574413836002,0.038408059626818,-0.015046812801104,-0.02225271612584,-0.710621295260577,-0.70306180687716
2023/02/28/14:14:59.837661,18840,1677611699,827628949,map,0.051090378314257,0.035594940185547,0.038399923592806,-0.015046812801104,-0.02225271612584,-0.710621295260577,-0.70306180687716
2023/02/28/14:14:59.868035,18841,1677611699,842135965,map,0.05109117180109,0.035612814128399,0.038393810391426,-0.015046812801104,-0.02225271612584,-0.710621295260577,-0.70306180687716
2023/02/28/14:14:59.868105,18842,1677611699,858284663,map,0.051089521497488,0.035637281835079,0.038386836647987,-0.015046812801104,-0.02225271612584,-0.710621295260577,-0.70306180687716
2023/02/28/14:14:59.869563,18843,1677611699,865257335,map,0.051088631153107,0.035658851265907,0.03838112205267,-0.015039312308431,-0.022255343389154,-0.710619992000996,-0.703063194430438
2023/02/28/14:14:59.880072,18844,1677611699,876131034,map,0.051089070737362,0.035678569227457,0.038379017263651,-0.015039312308431,-0.022255343389154,-0.710619992000996,-0.703063194430438
2023/02/28/14:14:59.888024,18845,1677611699,887022233,map,0.05108617991209,0.035705342888832,0.038375698029995,-0.015039312308431,-0.022255343389154,-0.710619992000996,-0.703063194430438
2023/02/28/14:14:59.901649,18846,1677611699,899230321,map,0.051085256040096,0.035751469433308,0.038377549499273,-0.015039312308431,-0.022255343389154,-0.710619992000996,-0.703063194430438
2023/02/28/14:14:59.925575,18847,1677611699,909840215,map,0.051082275807858,0.035780601203442,0.038378994911909,-0.01503506403781,-0.022250127058106,-0.71061777369382,-0.703065665618705
2023/02/28/14:14:59.925609,18848,1677611699,923118677,map,0.051080603152514,0.035807557404041,0.038383092731238,-0.01503506403781,-0.022250127058106,-0.71061777369382,-0.703065665618705
2023/02/28/14:14:59.944954,18849,1677611699,934026960,map,0.051079630851746,0.035832911729813,0.038390256464481,-0.01503506403781,-0.022250127058106,-0.71061777369382,-0.703065665618705
2023/02/28/14:14:59.948227,18850,1677611699,945783689,map,0.051079668104649,0.035856198519468,0.038399301469326,-0.01503506403781,-0.022250127058106,-0.71061777369382,-0.703065665618705
2023/02/28/14:14:59.957097,18851,1677611699,955658681,map,0.051080793142319,0.035877663642168,0.038411866873503,-0.015033909938559,-0.022249165912397,-0.710614559667349,-0.70306904823257
2023/02/28/14:14:59.988267,18852,1677611699,968274063,map,0.051079120486975,0.035905256867409,0.038422357290983,-0.015033909938559,-0.022249165912397,-0.710614559667349,-0.70306904823257
2023/02/28/14:14:59.988536,18853,1677611699,980312982,map,0.051074247807264,0.035964027047157,0.038446873426437,-0.015033909938559,-0.022249165912397,-0.710614559667349,-0.70306904823257
2023/02/28/14:14:59.994118,18854,1677611699,991242880,map,0.051072098314762,0.035995159298182,0.038460172712803,-0.015033909938559,-0.022249165912397,-0.710614559667349,-0.70306904823257
2023/02/28/14:15:00.021666,18855,1677611700,11484951,map,0.05107145011425,0.03602397069335,0.038474835455418,-0.015029715668588,-0.022248587051775,-0.710613740108709,-0.703069952084907
2023/02/28/14:15:00.021981,18856,1677611700,12986372,map,0.051068600267172,0.036059264093638,0.038487501442432,-0.015029715668588,-0.022248587051775,-0.710613740108709,-0.703069952084907
2023/02/28/14:15:00.034062,18857,1677611700,26270251,map,0.051051504909992,0.036143075674772,0.038533635437489,-0.015029715668588,-0.022248587051775,-0.710613740108709,-0.703069952084907
2023/02/28/14:15:00.034449,18858,1677611700,33382976,map,0.051048748195171,0.036178778856993,0.038547623902559,-0.015029715668588,-0.022248587051775,-0.710613740108709,-0.703069952084907
2023/02/28/14:15:00.056854,18859,1677611700,50011523,map,0.051048025488854,0.036211859434843,0.038563549518585,-0.015030801608482,-0.022244221560231,-0.710611530691885,-0.703072330089125
2023/02/28/14:15:00.068732,18860,1677611700,59471094,map,0.051048114895821,0.036241732537747,0.038580399006605,-0.015030801608482,-0.022244221560231,-0.710611530691885,-0.703072330089125
2023/02/28/14:15:00.078249,18861,1677611700,73696388,map,0.051049463450909,0.036269780248404,0.038599610328674,-0.015030801608482,-0.022244221560231,-0.710611530691885,-0.703072330089125
2023/02/28/14:15:00.084922,18862,1677611700,83744871,map,0.051048431545496,0.036302801221609,0.038615591824055,-0.015030801608482,-0.022244221560231,-0.710611530691885,-0.703072330089125
2023/02/28/14:15:00.102045,18863,1677611700,96466140,map,0.051050912588835,0.036359056830406,0.038655236363411,-0.01503446509158,-0.022248616027733,-0.710606389434911,-0.703077302758705
2023/02/28/14:15:00.111878,18864,1677611700,106252537,map,0.051050927489996,0.036391571164131,0.038673646748066,-0.01503446509158,-0.022248616027733,-0.710606389434911,-0.703077302758705
2023/02/28/14:15:00.121931,18865,1677611700,117037017,map,0.051037412136793,0.036442391574383,0.038706250488758,-0.01503446509158,-0.022248616027733,-0.710606389434911,-0.703077302758705
2023/02/28/14:15:00.135164,18866,1677611700,131910234,map,0.051044937223196,0.036493252962828,0.038752943277359,-0.01503446509158,-0.022248616027733,-0.710606389434911,-0.703077302758705
2023/02/28/14:15:00.148045,18867,1677611700,141504546,map,0.051047459244728,0.036521598696709,0.038773253560066,-0.0150326040448,-0.022253617014727,-0.710602908039369,-0.703080615566853
2023/02/28/14:15:00.155299,18868,1677611700,151970585,map,0.051050812005997,0.036548208445311,0.038796979933977,-0.0150326040448,-0.022253617014727,-0.710602908039369,-0.703080615566853
2023/02/28/14:15:00.171817,18869,1677611700,165937856,map,0.051054857671261,0.036571763455868,0.038822367787361,-0.0150326040448,-0.022253617014727,-0.710602908039369,-0.703080615566853
2023/02/28/14:15:00.184071,18870,1677611700,176714731,map,0.051059171557427,0.036592476069927,0.038850076496601,-0.0150326040448,-0.022253617014727,-0.710602908039369,-0.703080615566853
2023/02/28/14:15:00.193415,18871,1677611700,190433302,map,0.051061607897282,0.036617666482926,0.038874104619026,-0.015032458177192,-0.0222531675581,-0.710603944917697,-0.703079578688525
2023/02/28/14:15:00.217556,18872,1677611700,201649973,map,0.051064398139715,0.036640092730522,0.038900401443243,-0.015032458177192,-0.0222531675581,-0.710603944917697,-0.703079578688525
2023/02/28/14:15:00.217583,18873,1677611700,212789404,map,0.051068916916847,0.036682970821858,0.038954690098763,-0.015032458177192,-0.0222531675581,-0.710603944917697,-0.703079578688525
2023/02/28/14:15:00.222110,18874,1677611700,218129196,map,0.051071256399155,0.036703515797854,0.038981765508652,-0.015032458177192,-0.0222531675581,-0.710603944917697,-0.703079578688525
2023/02/28/14:15:00.251665,18875,1677611700,232951787,map,0.051074221730232,0.03672057390213,0.039011623710394,-0.015040489456739,-0.022251914018629,-0.7106029373446,-0.703080501967925
2023/02/28/14:15:00.251757,18876,1677611700,246107332,map,0.051074504852295,0.0367436632514,0.039038866758347,-0.015040489456739,-0.022251914018629,-0.7106029373446,-0.703080501967925
2023/02/28/14:15:00.266860,18877,1677611700,258426461,map,0.051075343042612,0.036762848496437,0.039067514240742,-0.015040489456739,-0.022251914018629,-0.7106029373446,-0.703080501967925
2023/02/28/14:15:00.282485,18878,1677611700,275131259,map,0.051077228039503,0.036779277026653,0.039098963141441,-0.015040489456739,-0.022251914018629,-0.7106029373446,-0.703080501967925
2023/02/28/14:15:00.283025,18879,1677611700,279011870,map,0.051081612706184,0.036812260746956,0.039162661880255,-0.015039864827273,-0.022253112898906,-0.71059957745052,-0.703083861862005
2023/02/28/14:15:00.303402,18880,1677611700,295323278,map,0.051083728671074,0.03682866692543,0.039193652570248,-0.015039864827273,-0.022253112898906,-0.71059957745052,-0.703083861862005
2023/02/28/14:15:00.311420,18881,1677611700,302800746,map,0.051086492836475,0.036842852830887,0.039227183908224,-0.015039864827273,-0.022253112898906,-0.71059957745052,-0.703083861862005
2023/02/28/14:15:00.317627,18882,1677611700,316611713,map,0.051087357103825,0.036863550543785,0.039257284253836,-0.015039864827273,-0.022253112898906,-0.71059957745052,-0.703083861862005
2023/02/28/14:15:00.346893,18883,1677611700,332853277,map,0.051089636981487,0.036882117390633,0.039290271699429,-0.015035494725918,-0.022243882739082,-0.710596880052216,-0.703087065022492
2023/02/28/14:15:00.347144,18884,1677611700,339016202,map,0.051093019545078,0.036897845566273,0.039324782788754,-0.015035494725918,-0.022243882739082,-0.710596880052216,-0.703087065022492
2023/02/28/14:15:00.350998,18885,1677611700,349826046,map,0.051094055175781,0.036920607089996,0.039356969296932,-0.015035494725918,-0.022243882739082,-0.710596880052216,-0.703087065022492
2023/02/28/14:15:00.358334,18886,1677611700,357333411,map,0.051096647977829,0.036940012127161,0.039391376078129,-0.015035494725918,-0.022243882739082,-0.710596880052216,-0.703087065022492
2023/02/28/14:15:00.388930,18887,1677611700,374135969,map,0.05110002681613,0.036956489086151,0.039427854120731,-0.015034488140637,-0.022246567295769,-0.710592803332439,-0.703090973154874
2023/02/28/14:15:00.390968,18888,1677611700,385977386,map,0.051102444529533,0.036999579519034,0.039495129138231,-0.015034488140637,-0.022246567295769,-0.710592803332439,-0.703090973154874
2023/02/28/14:15:00.402006,18889,1677611700,398559852,map,0.051105298101902,0.037017002701759,0.03953230381012,-0.015034488140637,-0.022246567295769,-0.710592803332439,-0.703090973154874
2023/02/28/14:15:00.417473,18890,1677611700,409810951,map,0.051108855754137,0.03703248128295,0.039571925997734,-0.015034488140637,-0.022246567295769,-0.710592803332439,-0.703090973154874
2023/02/28/14:15:00.423062,18891,1677611700,422180811,map,0.051109500229359,0.037053726613522,0.039607267826796,-0.015036306052752,-0.022243851128945,-0.710585790162701,-0.703098154912006
2023/02/28/14:15:00.436402,18892,1677611700,435038644,map,0.051111489534378,0.037072241306305,0.039645522832871,-0.015036306052752,-0.022243851128945,-0.710585790162701,-0.703098154912006
2023/02/28/14:15:00.447310,18893,1677611700,445979375,map,0.051115695387125,0.037110514938831,0.039721675217152,-0.015036306052752,-0.022243851128945,-0.710585790162701,-0.703098154912006
2023/02/28/14:15:00.458273,18894,1677611700,456238276,map,0.051117300987244,0.037129893898964,0.039758734405041,-0.015036306052752,-0.022243851128945,-0.710585790162701,-0.703098154912006
2023/02/28/14:15:00.476650,18895,1677611700,467423124,map,0.051120139658451,0.0371473133564,0.039797965437174,-0.015038810826788,-0.022251100716162,-0.710580246535033,-0.70310352995228
2023/02/28/14:15:00.489418,18896,1677611700,481862223,map,0.05112137272954,0.037171348929405,0.039832517504692,-0.015038810826788,-0.022251100716162,-0.710580246535033,-0.70310352995228
2023/02/28/14:15:00.489648,18897,1677611700,484900898,map,0.05112287402153,0.037193194031715,0.039868500083685,-0.015038810826788,-0.022251100716162,-0.710580246535033,-0.70310352995228
2023/02/28/14:15:00.512470,18898,1677611700,499793230,map,0.051125284284353,0.037212543189526,0.039904687553644,-0.015038810826788,-0.022251100716162,-0.710580246535033,-0.70310352995228
2023/02/28/14:15:00.515825,18899,1677611700,512021942,map,0.051128495484591,0.037228751927614,0.039942726492882,-0.015025124625551,-0.022245412537974,-0.710575524770911,-0.703108757478584
2023/02/28/14:15:00.517922,18900,1677611700,517297879,map,0.051129221916199,0.037251479923725,0.03997703269124,-0.015025124625551,-0.022245412537974,-0.710575524770911,-0.703108757478584
2023/02/28/14:15:00.547532,18901,1677611700,535255553,map,0.051132075488567,0.037289462983608,0.040048990398645,-0.015025124625551,-0.022245412537974,-0.710575524770911,-0.703108757478584
2023/02/28/14:15:00.549592,18902,1677611700,546649414,map,0.051130801439285,0.03731357306242,0.040081553161144,-0.015025124625551,-0.022245412537974,-0.710575524770911,-0.703108757478584
2023/02/28/14:15:00.581412,18903,1677611700,560054283,map,0.051130585372448,0.037335813045502,0.04011632502079,-0.015022292554894,-0.022233356234394,-0.710574818152654,-0.703109885565327
2023/02/28/14:15:00.581452,18904,1677611700,572198620,map,0.051131289452314,0.037355415523052,0.040151573717594,-0.015022292554894,-0.022233356234394,-0.710574818152654,-0.703109885565327
2023/02/28/14:15:00.585055,18905,1677611700,580774224,map,0.051129452884197,0.037382002919912,0.040182925760746,-0.015022292554894,-0.022233356234394,-0.710574818152654,-0.703109885565327
2023/02/28/14:15:00.603509,18906,1677611700,595241031,map,0.051128808408976,0.037406153976917,0.040215097367764,-0.015022292554894,-0.022233356234394,-0.710574818152654,-0.703109885565327
2023/02/28/14:15:00.608191,18907,1677611700,606793487,map,0.051126878708601,0.037458367645741,0.040277492254973,-0.015023872073897,-0.022236776385296,-0.710571287037002,-0.703113332387281
2023/02/28/14:15:00.624915,18908,1677611700,617329006,map,0.05112611502409,0.037485867738724,0.040307052433491,-0.015023872073897,-0.022236776385296,-0.710571287037002,-0.703113332387281
2023/02/28/14:15:00.636774,18909,1677611700,633522809,map,0.051126778125763,0.03751103579998,0.04033799469471,-0.015023872073897,-0.022236776385296,-0.710571287037002,-0.703113332387281
2023/02/28/14:15:00.641152,18910,1677611700,638412856,map,0.051128670573235,0.037534177303314,0.040370676666498,-0.015023872073897,-0.022236776385296,-0.710571287037002,-0.703113332387281
2023/02/28/14:15:00.655593,18911,1677611700,650472556,map,0.051128149032593,0.037563089281321,0.040397085249424,-0.015029667924111,-0.02223881194637,-0.710565012095657,-0.703119438741232
2023/02/28/14:15:00.678093,18912,1677611700,666537504,map,0.051131661981344,0.037614081054926,0.040455278009176,-0.015029667924111,-0.02223881194637,-0.710565012095657,-0.703119438741232
2023/02/28/14:15:00.678169,18913,1677611700,676056242,map,0.051133237779141,0.037644471973181,0.040481112897396,-0.015029667924111,-0.02223881194637,-0.710565012095657,-0.703119438741232
2023/02/28/14:15:00.689005,18914,1677611700,688033442,map,0.051134951412678,0.037673510611057,0.040507547557354,-0.015029667924111,-0.02223881194637,-0.710565012095657,-0.703119438741232
2023/02/28/14:15:00.703331,18915,1677611700,698471460,map,0.051123633980751,0.037721522152424,0.04053595662117,-0.015034180600352,-0.022246916982902,-0.710561797410642,-0.703122484838853
2023/02/28/14:15:00.714666,18916,1677611700,709529431,map,0.051124732941389,0.037754349410534,0.040558766573668,-0.015034180600352,-0.022246916982902,-0.710561797410642,-0.703122484838853
2023/02/28/14:15:00.724762,18917,1677611700,719384162,map,0.05113110691309,0.037813059985638,0.04060709476471,-0.015034180600352,-0.022246916982902,-0.710561797410642,-0.703122484838853
2023/02/28/14:15:00.735350,18918,1677611700,733565133,map,0.051135819405317,0.037839561700821,0.040632143616676,-0.015034180600352,-0.022246916982902,-0.710561797410642,-0.703122484838853
2023/02/28/14:15:00.751552,18919,1677611700,743382885,map,0.051138427108526,0.037871681153774,0.040651813149452,-0.015026945501115,-0.022250287742966,-0.710557162903667,-0.703127035052131
2023/02/28/14:15:00.758618,18920,1677611700,756723431,map,0.051142748445273,0.037901900708675,0.040673106908798,-0.015026945501115,-0.022250287742966,-0.710557162903667,-0.703127035052131
